[
  {
    "lat": "51.2225903",
    "lng": "3.2039907",
    "id": 1938519,
    "name": "Angelique C, Huidtherapeute",
    "phone": "+32 499 70 32 10",
    "email": "info@angeliquec.be",
    "web": "http:\/\/www.angeliquec.be",
    "webdisplay": "www.angeliquec.be",
    "tagsvalue": "Glo Beauty",
    "tags": [
      {
        "tag": "Glo Beauty"
      }
    ],
    "address": "Gistelse Steenweg 577",
    "country": "Belgium",
    "state": "West-Vlaanderen",
    "city": "Brugge - Sint Andries ",
    "postal": "8200",
    "priority": 1
  },
  {
    "lat": "50.941588",
    "lng": "5.104834",
    "id": 1938526,
    "name": "Be You (tiful) ",
    "phone": "+32 474 41 55 73",
    "email": " sarah.cala@telenet.be",
    "web": "http:\/\/www.b-you.be",
    "tagsvalue": "Glo Beauty",
    "tags": [
      {
        "tag": "Glo Beauty"
      }
    ],
    "address": "Zittaardstraat 71 ",
    "country": "Belgium",
    "state": "Limburg",
    "city": "Halen",
    "postal": "3545 ",
    "priority": 1
  },
  {
    "lat": "51.2558251",
    "lng": "4.1833034",
    "id": 9698962,
    "name": "Beau Chess",
    "phone": "+32 (0)472 89 07 94",
    "email": "info@beauchess.be",
    "web": "https:\/\/beauchess.be\/",
    "webdisplay": "beauchess.be\/",
    "tagsvalue": "Glo Beauty",
    "tags": [
      {
        "tag": "Glo Beauty"
      }
    ],
    "address": "Hoeve van Carena 13",
    "country": "Belgium",
    "state": "Oost-Vlaanderen",
    "city": "9130 Verrebroek",
    "priority": 1
  },
  {
    "lat": "51.0777113",
    "lng": "4.419828300000063",
    "id": 2929937,
    "name": "Beauties",
    "phone": "0472\/63.00.84",
    "email": "tessa.thielemans01@hotmail.com",
    "web": "https:\/\/beautiestessa.be",
    "webdisplay": "www.beautiestessa.be",
    "tagsvalue": "Glo Skin,Glo Beauty",
    "tags": [
      {
        "tag": "Glo Skin"
      },
      {
        "tag": "Glo Beauty"
      }
    ],
    "address": "Molenbergstraat 1",
    "country": "Belgium",
    "state": "Antwerpen",
    "city": "Rumst ",
    "postal": "2840",
    "priority": 1
  },
  {
    "lat": "51.1623866",
    "lng": "4.390683999999965",
    "id": 2929938,
    "name": "Beautique",
    "phone": "0491 36 99 60",
    "email": "info@romybeautique.be",
    "web": "https:\/\/beautiquewilrijk.mytreatwell.be\/",
    "webdisplay": "beautiquewilrijk.mytreatwell.be\/",
    "tagsvalue": "Glo Skin,Glo Beauty",
    "tags": [
      {
        "tag": "Glo Skin"
      },
      {
        "tag": "Glo Beauty"
      }
    ],
    "address": "Krijgslaan 213",
    "country": "Belgium",
    "state": "Antwerpen",
    "city": "Wilrijk",
    "postal": "2610",
    "priority": 1
  },
  {
    "lat": "51.0361153",
    "lng": "3.9137703",
    "id": 1938521,
    "name": "Beautique",
    "phone": " +32 474 74 10 79",
    "email": "beautique.sally@gmail.com",
    "web": "https:\/\/website-3170902107709623846136-beautysalon.business.site\/",
    "webdisplay": "website-3170902107709623846136-beautysalon.business.site\/",
    "tagsvalue": "Glo Beauty",
    "tags": [
      {
        "tag": "Glo Beauty"
      }
    ],
    "address": "Nerenweg 52A",
    "country": "Belgium",
    "state": "Oost-Vlaanderen",
    "city": "Kalken",
    "postal": "9270",
    "priority": 1
  },
  {
    "lat": "51.0444058",
    "lng": "4.5558025",
    "id": 1938522,
    "name": "Beauty Palace",
    "email": "info@thebeautypalace.be",
    "fax": "+32 15 55 66 09",
    "web": "http:\/\/www.thebeautypalace.be",
    "tagsvalue": "Glo Beauty",
    "tags": [
      {
        "tag": "Glo Beauty"
      }
    ],
    "address": "Bergstraat 51",
    "country": "Belgium",
    "state": "Antwerpen",
    "city": "Onze-Lieve-Vrouw-Waver",
    "postal": "2861",
    "priority": 1
  },
  {
    "lat": "50.9449161",
    "lng": "5.3713763",
    "id": 9698966,
    "name": "Bella Dita",
    "phone": "0473 36 05 18",
    "email": "info@belladita.be",
    "web": "https:\/\/belladita.be\/",
    "webdisplay": "belladita.be\/",
    "tagsvalue": "Glo Beauty",
    "tags": [
      {
        "tag": "Glo Beauty"
      }
    ],
    "address": "Kuilenstraat 12",
    "country": "Belgium",
    "state": "Limburg",
    "city": "3500 Hasselt",
    "priority": 1
  },
  {
    "lat": "50.9797472",
    "lng": "4.5754984",
    "id": 11945385,
    "name": "Belle 4 Beauty",
    "phone": "0478 93 87 41",
    "email": "isabel.sterckx@skynet.be",
    "web": "https:\/\/www.belle4beauty.be\/",
    "webdisplay": "https:\/\/www.belle4beauty.be\/",
    "tagsvalue": "Glo Skin,Glo Beauty,at home treatment\/peel boxen",
    "tags": [
      {
        "tag": "Glo Skin"
      },
      {
        "tag": "Glo Beauty"
      },
      {
        "tag": "at home treatment\/peel boxen"
      }
    ],
    "store_image": "https:\/\/cdn.shopify.com\/s\/files\/1\/0019\/7246\/9849\/t\/1\/assets\/scasl_1672126116_peel-at-home-boxen-verkooppunt-logo_compact.png",
    "address": "Wespelaarsebaan 23",
    "country": "Belgium",
    "state": "Vlaams Brabant",
    "city": "Boortmeerbeek",
    "postal": "3190",
    "priority": 1
  },
  {
    "lat": "50.81002059999999",
    "lng": "4.0512998",
    "id": 7740104,
    "name": "Belle Vie",
    "phone": "0479 01 35 69",
    "email": "info@bellevieschoonheidssalon.be",
    "web": "https:\/\/www.bellevieschoonheidssalon.be\/",
    "webdisplay": "www.bellevieschoonheidssalon.be\/",
    "tagsvalue": "Glo Beauty",
    "tags": [
      {
        "tag": "Glo Beauty"
      }
    ],
    "address": "Valleistraat 183",
    "country": "Belgium",
    "state": "Oost-Vlaanderen",
    "city": "Meerbeek ",
    "postal": "9402",
    "priority": 1
  },
  {
    "lat": "51.0737753",
    "lng": "4.70635900000002",
    "id": 2929935,
    "name": "C-C Create",
    "phone": "0489 16 49 19",
    "email": "C-CCreate@hotmail.com",
    "web": "https:\/\/kapsalonc-c-create.business.site\/",
    "webdisplay": "kapsalonc-c-create.business.site\/",
    "tagsvalue": "Glo Beauty",
    "tags": [
      {
        "tag": "Glo Beauty"
      }
    ],
    "address": "Mechelsesteenweg 14B",
    "country": "Belgium",
    "state": "Antwerpen",
    "city": "Heist op den Berg",
    "postal": "2220",
    "priority": 1
  },
  {
    "lat": "51.0454933",
    "lng": "4.4944384",
    "id": 11059030,
    "name": "Care By Eva",
    "phone": "+32 (0) 492 36 18 51",
    "email": "Info@carebyeva.be",
    "web": "https:\/\/carebyeva.be",
    "webdisplay": "www.carebyeva.be",
    "tagsvalue": "Glo Beauty,Glo Skin",
    "tags": [
      {
        "tag": "Glo Beauty"
      },
      {
        "tag": "Glo Skin"
      }
    ],
    "address": "Duivenstraat 90",
    "country": "Belgium",
    "state": "Antwerpen",
    "city": "Mechelen",
    "postal": "2800",
    "priority": 1
  },
  {
    "lat": "51.0841474",
    "lng": "4.336779500000034",
    "id": 2373809,
    "name": "Cindi-Kuur",
    "phone": "0496514520",
    "email": "cindi@telenet.be",
    "web": "http:\/\/www.cindikuur.be",
    "webdisplay": "www.cindikuur.be",
    "tagsvalue": "Glo Beauty",
    "tags": [
      {
        "tag": "Glo Beauty"
      }
    ],
    "address": "Kaardijk 101",
    "country": "Belgium",
    "state": "Vlaams Brabant",
    "city": "Ruisbroek",
    "postal": "2870 ",
    "priority": 1
  },
  {
    "lat": "51.0658132",
    "lng": "4.4973064",
    "id": 3779601,
    "name": "Cocoon By Ellen",
    "address": "Hof Van Vlaanderenstraat 1",
    "country": "Belgium",
    "state": "West-Vlaanderen",
    "city": " Sint-Baafs-Vijve",
    "postal": "8710",
    "priority": 1
  },
  {
    "lat": "50.9792841",
    "lng": "4.603708",
    "id": 1938531,
    "name": "Corestilo ",
    "phone": " +32 468 14 71 01 ",
    "email": "anne@corestilo.be",
    "fax": " +32 16 69 89 27",
    "web": "http:\/\/www.corestilo.be",
    "tagsvalue": "Glo Beauty",
    "tags": [
      {
        "tag": "Glo Beauty"
      }
    ],
    "address": "Beverdijk 71 ",
    "country": "Belgium",
    "state": "Vlaams-Brabant",
    "city": "Haacht",
    "postal": "3150 ",
    "priority": 1
  },
  {
    "lat": "51.2047828",
    "lng": "4.4043832",
    "id": 1938561,
    "name": "Cosy Beauty",
    "phone": "0493\/41.15.03",
    "email": "sylvia@cosybeauty.be",
    "web": "https:\/\/www.cosybeauty.be\/",
    "webdisplay": "www.cosybeauty.be\/",
    "tagsvalue": "Glo Beauty,Glo Skin",
    "tags": [
      {
        "tag": "Glo Beauty"
      },
      {
        "tag": "Glo Skin"
      }
    ],
    "address": "Anselmostraat 96",
    "country": "Belgium",
    "state": "Antwerpen",
    "city": "Antwerpen",
    "postal": "2018 ",
    "priority": 1
  },
  {
    "lat": "51.0797634",
    "lng": "4.5954937",
    "id": 1938533,
    "name": "Dermacare ",
    "phone": " +32 479 25 66 96 ",
    "email": "jolienvanbulck@hotmail.com",
    "web": "https:\/\/www.dermacarebeautyandrelax.com\/",
    "webdisplay": "www.dermacarebeautyandrelax.com\/",
    "tagsvalue": "Glo Beauty,Glo Skin",
    "tags": [
      {
        "tag": "Glo Beauty"
      },
      {
        "tag": "Glo Skin"
      }
    ],
    "address": "Soeteweide 31",
    "country": "Belgium",
    "state": "Antwerpen",
    "city": "Koningshooikt",
    "postal": " 2500 ",
    "priority": 1
  },
  {
    "lat": "50.799679",
    "lng": "3.2440419",
    "id": 1938535,
    "name": "E-Line Beauty Skincare",
    "email": "info@elineskincare.be",
    "fax": " +32 56 20 28 48",
    "web": "https:\/\/www.elineskincare.be\/",
    "webdisplay": " www.elineskincare.be",
    "tagsvalue": "Glo Beauty,Glo Skin",
    "tags": [
      {
        "tag": "Glo Beauty"
      },
      {
        "tag": "Glo Skin"
      }
    ],
    "address": "Verruestraat 25",
    "country": "Belgium",
    "state": "West-Vlaanderen",
    "city": " Marke (Kortrijk)",
    "postal": " 8500",
    "priority": 1
  },
  {
    "lat": "51.0783362",
    "lng": "4.4007764",
    "id": 9698967,
    "name": "Enjoy",
    "phone": "+32(0)474 41 47 43",
    "email": "info@enjoyrelaxandbeauty.be",
    "web": "https:\/\/enjoyrelaxandbeauty.be\/",
    "webdisplay": "enjoyrelaxandbeauty.be\/",
    "tagsvalue": "Glo Beauty",
    "tags": [
      {
        "tag": "Glo Beauty"
      }
    ],
    "address": "Oude baan 30",
    "country": "Belgium",
    "state": "Antwerpen",
    "city": "2840 Rumst (Terhagen)",
    "priority": 1
  },
  {
    "lat": "50.8388775",
    "lng": "5.2259485",
    "id": 10821662,
    "name": "Esthetiek Els",
    "phone": "0498 68 12 91",
    "email": "info@esthetiek-els.be",
    "web": "https:\/\/www.instituutelsswinnen.be",
    "tagsvalue": "Glo Beauty",
    "tags": [
      {
        "tag": "Glo Beauty"
      }
    ],
    "address": "Keelstraat 45",
    "country": "Belgium",
    "state": "Limburg",
    "city": "Sint Truiden",
    "postal": "3800",
    "priority": 1
  },
  {
    "lat": "51.1186123",
    "lng": "3.7169986",
    "id": 12820254,
    "name": "Esthetiek Mollitia",
    "phone": "09 253 53 79",
    "email": "joke.sesselle@telenet.be",
    "web": "https:\/\/mollitia.be\/",
    "webdisplay": "https:\/\/mollitia.be\/",
    "tagsvalue": "Glo Beauty",
    "tags": [
      {
        "tag": "Glo Beauty"
      }
    ],
    "address": "Klaverbeekstraat 28,",
    "country": "Belgium",
    "state": "Oost-Vlaanderen",
    "city": "Evergem",
    "postal": "9940",
    "priority": 1
  },
  {
    "lat": "50.9469323",
    "lng": "5.3891844",
    "id": 1938538,
    "name": "Etiquelle ",
    "phone": "+32 472 10 30 49",
    "email": "etiquelle@outlook.be",
    "web": "https:\/\/www.etiquellehasselt.com\/",
    "webdisplay": "www.etiquellehasselt.com\/",
    "tagsvalue": "Glo Beauty",
    "tags": [
      {
        "tag": "Glo Beauty"
      }
    ],
    "address": "Genkersteenweg 399 ",
    "country": "Belgium",
    "state": "Limburg",
    "city": " Hasselt ",
    "postal": "3500",
    "priority": 1
  },
  {
    "lat": "50.9166325",
    "lng": "3.1602202",
    "id": 1938540,
    "name": "Feel Good",
    "phone": " +32 473 91 98 43 ",
    "email": "info@charlottedebrabander.be",
    "web": "http:\/\/www.charlottedebrabander.be",
    "tagsvalue": "Glo Beauty",
    "tags": [
      {
        "tag": "Glo Beauty"
      }
    ],
    "address": " Sint-eloois-winkelsestraat 79A",
    "country": "Belgium",
    "state": "West-Vlaanderen",
    "city": " Roeselare",
    "postal": " 8800",
    "priority": 1
  },
  {
    "lat": "51.1142524",
    "lng": "4.7868224",
    "id": 3779608,
    "name": "FERM",
    "address": "Dalstraat 59",
    "country": "Belgium",
    "state": "Antwerpen",
    "city": "Wiekevorst",
    "postal": "2222",
    "priority": 1
  },
  {
    "lat": "50.9891291",
    "lng": "4.9333044",
    "id": 6164002,
    "name": "GeStyled",
    "phone": "0479\/373.009",
    "email": "info@gestyled.be",
    "web": "http:\/\/www.gestyled.be",
    "webdisplay": "www.gestyled.be",
    "tagsvalue": "Glo Skin",
    "tags": [
      {
        "tag": "Glo Skin"
      }
    ],
    "address": "Maasstraat 21 A",
    "country": "Belgium",
    "state": "Vlaams Brabant",
    "city": " Scherpenheuvel -Zichem",
    "postal": "3272 ",
    "priority": 1
  },
  {
    "lat": "50.83988",
    "lng": "3.150179",
    "id": 7467131,
    "name": "Glowing",
    "phone": "056 400126",
    "email": "Ann@glowing.be",
    "web": "http:\/\/Www.glowing.be",
    "webdisplay": "Www.glowing.be",
    "tagsvalue": "Glo Skin",
    "tags": [
      {
        "tag": "Glo Skin"
      }
    ],
    "address": "Tulpenlaan 10",
    "country": "Belgium",
    "state": "West-Vlaanderen",
    "city": "Moorsele",
    "priority": 1
  },
  {
    "lat": "51.02095600000001",
    "lng": "4.4796835",
    "id": 5837753,
    "name": "HUIS PUUR",
    "phone": "0468 14 39 29",
    "email": "info@huispuur-shop.be",
    "web": "https:\/\/www.huispuur-shop.be\/",
    "webdisplay": "www.huispuur-shop.be\/",
    "tagsvalue": "Glo Beauty",
    "tags": [
      {
        "tag": "Glo Beauty"
      }
    ],
    "store_image": "https:\/\/cdn.shopify.com\/s\/files\/1\/0019\/7246\/9849\/t\/1\/assets\/scasl_1682050286_peel-at-home-boxen-verkooppunt-logo_compact.png",
    "address": "Albertlaan 7",
    "country": "Belgium",
    "state": "Antwerpen",
    "city": "Elewijt",
    "postal": "1982",
    "priority": 1
  },
  {
    "lat": "51.32836390000001",
    "lng": "3.2445241",
    "id": 6223035,
    "name": "Instituut Jane Verleye",
    "phone": "0498353156",
    "email": "jane_verleye@hotmail.com",
    "web": "http:\/\/www.janeverleyeskincare.com",
    "webdisplay": "www.janeverleyeskincare.com",
    "tagsvalue": "Glo Skin,at home treatment\/peel boxen",
    "tags": [
      {
        "tag": "Glo Skin"
      },
      {
        "tag": "at home treatment\/peel boxen"
      }
    ],
    "store_image": "https:\/\/cdn.shopify.com\/s\/files\/1\/0019\/7246\/9849\/t\/1\/assets\/scasl_1672126006_peel-at-home-boxen-verkooppunt-logo_compact.png",
    "address": "Stuurboord 25",
    "country": "Belgium",
    "state": "West-Vlaanderen",
    "city": "Knokke Heist",
    "postal": "8301",
    "priority": 1
  },
  {
    "lat": "51.242186",
    "lng": "4.9755744",
    "id": 10407264,
    "name": "Kapsalon Marcel",
    "phone": "+32 (0)14 \/ 85 01 45",
    "email": "nathalie@kapsalonmarcel.be",
    "web": "https:\/\/www.kapsalonmarcel.be\/",
    "webdisplay": "www.kapsalonmarcel.be",
    "tagsvalue": "Glo Beauty",
    "tags": [
      {
        "tag": "Glo Beauty"
      }
    ],
    "address": "Retiesebaan 61",
    "country": "Belgium",
    "state": "Antwerpen",
    "city": "Kasterlee",
    "postal": "2460",
    "priority": 1
  },
  {
    "lat": "51.2632511",
    "lng": "4.551939700000048",
    "id": 2929933,
    "name": "Karakthair",
    "phone": "0493 74 13 74",
    "email": "an-van-camp@hotmail.com",
    "tagsvalue": "Glo Beauty",
    "tags": [
      {
        "tag": "Glo Beauty"
      }
    ],
    "address": "Kerkstraat 40",
    "country": "Belgium",
    "state": "Antwerpen",
    "city": "’S Gravenwezel",
    "postal": "2970",
    "priority": 1
  },
  {
    "lat": "51.0485732",
    "lng": "3.7085855",
    "id": 6366027,
    "name": "Katrien Anthonis",
    "phone": "0474747882",
    "email": "hallo@katrienanthonis.be",
    "web": "http:\/\/www.katrienanthonis.be",
    "webdisplay": "www.katrienanthonis.be",
    "tagsvalue": "Glo Beauty",
    "tags": [
      {
        "tag": "Glo Beauty"
      }
    ],
    "address": "Martelaarslaan 359 ",
    "country": "Belgium",
    "state": "Oost-Vlaanderen",
    "city": "Gent",
    "priority": 1
  },
  {
    "lat": "50.996721",
    "lng": "4.8302411",
    "id": 1938544,
    "name": "Kim Skin Care",
    "phone": "+32 498 21 80 40",
    "email": "kim.vangramberen@telenet.be",
    "web": "http:\/\/www.kimvangramberen.be",
    "webdisplay": "www.kimvangramberen.be",
    "tagsvalue": "Glo Beauty,Glo Skin",
    "tags": [
      {
        "tag": "Glo Beauty"
      },
      {
        "tag": "Glo Skin"
      }
    ],
    "address": " Kleine Mechelsebaan 16 ",
    "country": "Belgium",
    "city": "Aarschot ",
    "postal": "3200 ",
    "priority": 1
  },
  {
    "lat": "51.2178756",
    "lng": "4.1132149",
    "id": 4071571,
    "name": "Kimbeau",
    "phone": "0473\/35.04.45",
    "email": "info@kimbeau.be",
    "web": "http:\/\/kimbeau.be",
    "webdisplay": "kimbeau.be",
    "tagsvalue": "Glo Beauty",
    "tags": [
      {
        "tag": "Glo Beauty"
      }
    ],
    "address": "Tybaertstraat 4",
    "country": "Belgium",
    "state": "Oost-Vlaanderen",
    "city": "Sint Gillis Waas",
    "postal": "9170",
    "priority": 1
  },
  {
    "lat": "51.1487767",
    "lng": "3.9671358",
    "id": 7029348,
    "name": "La Beauté ",
    "web": "https:\/\/www.labeaute-lokeren.com\/",
    "webdisplay": "www.labeaute-lokeren.com",
    "tagsvalue": "Glo Beauty",
    "tags": [
      {
        "tag": "Glo Beauty"
      }
    ],
    "address": "Eksaarde-dorp 171",
    "country": "Belgium",
    "state": "Oost-Vlaanderen",
    "city": "Lokeren",
    "postal": "1160",
    "priority": 1
  },
  {
    "lat": "51.1271272",
    "lng": "3.335704",
    "id": 6746122,
    "name": "La Beautique",
    "email": "info@labeautique-schoonheidssalon.com",
    "tagsvalue": "Glo Beauty",
    "tags": [
      {
        "tag": "Glo Beauty"
      }
    ],
    "address": "Binnenweg 8",
    "country": "Belgium",
    "state": "West-Vlaanderen",
    "city": "Beernem",
    "postal": "8730",
    "priority": 1
  },
  {
    "lat": "50.95053310000001",
    "lng": "4.4091586",
    "id": 1938547,
    "name": "Linea Kara",
    "phone": " +32 496 08 41 58",
    "email": "info@lineakara.be",
    "web": "http:\/\/www.lineakara.be",
    "webdisplay": "www.lineakara.be",
    "tagsvalue": "Glo Beauty,Glo Skin",
    "tags": [
      {
        "tag": "Glo Beauty"
      },
      {
        "tag": "Glo Skin"
      }
    ],
    "address": " Heidebaan 82",
    "country": "Belgium",
    "state": "Vlaams Brabant",
    "city": "Grimbergen",
    "postal": "1850",
    "priority": 1
  },
  {
    "lat": "51.2106598",
    "lng": "4.3923587",
    "id": 1938548,
    "name": "Loox4Life ",
    "phone": " +32 495 78 11 50",
    "web": " http:\/\/www.loox4life.com ",
    "tagsvalue": "Glo Beauty,Glo Skin",
    "tags": [
      {
        "tag": "Glo Beauty"
      },
      {
        "tag": "Glo Skin"
      }
    ],
    "address": "Verlatstraat 3",
    "country": "Belgium",
    "state": "Antwerpen",
    "city": " Antwerpen",
    "postal": " 2000",
    "priority": 1
  },
  {
    "lat": "51.2245532",
    "lng": "4.480672",
    "id": 5837754,
    "name": "Love For Leo",
    "phone": "+32471093938.",
    "web": "https:\/\/loveforleo.be\/",
    "webdisplay": "loveforleo.be\/",
    "tagsvalue": "Glo Skin",
    "tags": [
      {
        "tag": "Glo Skin"
      }
    ],
    "address": "Tweegezusterslaan 94",
    "country": "Belgium",
    "state": "Antwerpen",
    "city": "Deurne",
    "postal": "2100",
    "priority": 1
  },
  {
    "lat": "51.1020483",
    "lng": "5.1391021",
    "id": 12063288,
    "name": "New Look Body & Mind",
    "phone": "0486161918",
    "email": "info@newlookbeautyandmind.be",
    "web": "https:\/\/newlookbeautyandmind.be\/",
    "webdisplay": "https:\/\/newlookbeautyandmind.be\/",
    "tagsvalue": "Glo Beauty",
    "tags": [
      {
        "tag": "Glo Beauty"
      }
    ],
    "address": "Processiestraat 32 bus 1",
    "country": "Belgium",
    "state": "Antwerpen",
    "city": "Meerhout",
    "postal": "2450",
    "priority": 1
  },
  {
    "lat": "50.9422492",
    "lng": "3.8227003",
    "id": 5837766,
    "name": "Plus belle",
    "phone": " 0474\/88.29.26",
    "email": "beautybyplusbelle@outlook.com",
    "web": "https:\/\/www.beautybyplusbelle.be\/",
    "webdisplay": "www.beautybyplusbelle.be\/",
    "tagsvalue": "Glo Beauty",
    "tags": [
      {
        "tag": "Glo Beauty"
      }
    ],
    "marker_image": "\/\/cdn.shopify.com\/s\/files\/1\/0089\/2210\/3889\/t\/6\/assets\/scasl_1608625475marker_compact.png",
    "address": "Houtemstraat 26d",
    "country": "Belgium",
    "state": "Oost-Vlaanderen",
    "city": "Oosterzele",
    "postal": "9860",
    "priority": 1
  },
  {
    "lat": "50.9155168",
    "lng": "4.4041245",
    "id": 1938567,
    "name": "Podoes ",
    "phone": " +32 473 702 376",
    "fax": " ",
    "tagsvalue": "Glo Skin",
    "tags": [
      {
        "tag": "Glo Skin"
      }
    ],
    "address": "Italielaan 27 ",
    "country": "Belgium",
    "state": "Vlaams-Brabant",
    "city": " Vilvoorde",
    "postal": "1800",
    "priority": 1
  },
  {
    "lat": "51.18855550000001",
    "lng": "3.2126186",
    "id": 6203002,
    "name": "Pour Elle",
    "phone": "0493 61 26 51",
    "email": "strubbe.eva@gmail.com",
    "tagsvalue": "Glo Skin",
    "tags": [
      {
        "tag": "Glo Skin"
      }
    ],
    "address": "Ter Zwanekerke 3",
    "country": "Belgium",
    "state": "West-Vlaanderen",
    "city": "Brugge",
    "postal": "8200",
    "priority": 1
  },
  {
    "lat": "51.0461187",
    "lng": "4.2035459",
    "id": 1938552,
    "name": "Purelien ",
    "phone": "+32 472 85 34 61",
    "email": "info@purelien.be",
    "web": "http:\/\/www.purelien.be\/",
    "webdisplay": "www.purelien.be\/",
    "tagsvalue": "Glo Beauty,Glo Skin",
    "tags": [
      {
        "tag": "Glo Beauty"
      },
      {
        "tag": "Glo Skin"
      }
    ],
    "address": "Calleboutstraat 18 ",
    "country": "Belgium",
    "state": "Antwerpen",
    "city": " Sint-Amands ",
    "postal": "2890",
    "priority": 1
  },
  {
    "lat": "51.0658132",
    "lng": "4.4973064",
    "id": 3643305,
    "name": "Romeijn",
    "phone": "0486 17 06 31",
    "web": "http:\/\/romeijn.be",
    "webdisplay": "romeijn.be",
    "tagsvalue": "Glo Skin",
    "tags": [
      {
        "tag": "Glo Skin"
      }
    ],
    "address": "Berlaarsesteenweg 130",
    "country": "Belgium",
    "state": "Antwerpen",
    "city": "Lier",
    "postal": "2500",
    "priority": 1
  },
  {
    "lat": "51.340505",
    "lng": "3.2877127",
    "id": 7768159,
    "name": "Schoonheidsinstituut Jade",
    "email": "ngeth@schoonheidsinstituut-jade.be",
    "tagsvalue": "Glo Beauty,Glo Skin,at home treatment\/peel boxen",
    "tags": [
      {
        "tag": "Glo Beauty"
      },
      {
        "tag": "Glo Skin"
      },
      {
        "tag": "at home treatment\/peel boxen"
      }
    ],
    "store_image": "https:\/\/cdn.shopify.com\/s\/files\/1\/0019\/7246\/9849\/t\/1\/assets\/scasl_1672126054_peel-at-home-boxen-verkooppunt-logo_compact.png",
    "address": "Smedenstraat 7",
    "country": "Belgium",
    "state": "West-Vlaanderen",
    "city": "Knokke-Heist",
    "priority": 1
  },
  {
    "lat": "51.0848266",
    "lng": "4.9004499",
    "id": 7030286,
    "name": "Schoonheidsinstituut Jully",
    "web": "https:\/\/jullysrumsiri.myshopify.com\/",
    "webdisplay": "jullysrumsiri.myshopify.com\/",
    "tagsvalue": "Glo Skin",
    "tags": [
      {
        "tag": "Glo Skin"
      }
    ],
    "address": "Zeptstraat 11",
    "country": "Belgium",
    "state": "Antwerpen",
    "city": "Westerlo ",
    "postal": "2260",
    "priority": 1
  },
  {
    "lat": "50.9472905",
    "lng": "4.5504371",
    "id": 1938554,
    "name": "Schoonheidsinstituut Katleen",
    "email": "cloetkatleen@gmail.com",
    "fax": " +32 16 65 61 38",
    "web": "https:\/\/www.schoonheidsinstituutkatleen.com\/",
    "webdisplay": "www.schoonheidsinstituutkatleen.com\/",
    "tagsvalue": "Glo Beauty",
    "tags": [
      {
        "tag": "Glo Beauty"
      }
    ],
    "address": " Brouwerijstraat 37\/A",
    "country": "Belgium",
    "city": "Kampenhout",
    "postal": " 1910 ",
    "priority": 1
  },
  {
    "lat": "51.3299368",
    "lng": "3.2080757",
    "id": 4071572,
    "name": "Shannen Calleeuw Nails&Beauty",
    "phone": " (+32) 0495 41 51 90",
    "email": "Shannen.calleeuw@gmail.com",
    "web": "https:\/\/www.shannencalleeuwnailsandbeauty.be\/",
    "webdisplay": "www.shannencalleeuwnailsandbeauty.be\/",
    "tagsvalue": "Glo Skin",
    "tags": [
      {
        "tag": "Glo Skin"
      }
    ],
    "address": "Zustersstraat 32",
    "country": "Belgium",
    "state": "West-Vlaanderen",
    "city": "Zeebrugge",
    "postal": "8380",
    "priority": 1
  },
  {
    "lat": "51.240711",
    "lng": "5.3039491",
    "id": 1938570,
    "name": "Skin First",
    "phone": "0478 23 56 55",
    "email": "info@skin-first.be",
    "web": "https:\/\/www.skin-first.be\/",
    "webdisplay": "www.skin-first.be\/",
    "tagsvalue": "Glo Beauty",
    "tags": [
      {
        "tag": "Glo Beauty"
      }
    ],
    "address": "Kloosterstraat 183",
    "country": "Belgium",
    "state": "Limburg",
    "city": "Lommel",
    "postal": "3920",
    "priority": 1
  },
  {
    "lat": "50.9096381",
    "lng": "5.3050454",
    "id": 11945386,
    "name": "Skincare Valerie",
    "phone": "0032 495 26 18 59",
    "email": "info@skincare-valerie.be",
    "web": "https:\/\/skincare-valerie.be\/",
    "webdisplay": "https:\/\/skincare-valerie.be\/",
    "tagsvalue": "Glo Beauty",
    "tags": [
      {
        "tag": "Glo Beauty"
      }
    ],
    "address": "BOSVELDSTRAAT 32,",
    "country": "Belgium",
    "state": "Limburg",
    "city": "Hasselt",
    "postal": "3500",
    "priority": 1
  },
  {
    "lat": "51.1934258",
    "lng": "5.1097305",
    "id": 1938557,
    "name": "Skinunique",
    "phone": "+32 498 65 45 56",
    "email": "info@skin-unique.com",
    "web": "https:\/\/skin-unique.com\/",
    "webdisplay": "skin-unique.com\/",
    "tagsvalue": "Glo Beauty",
    "tags": [
      {
        "tag": "Glo Beauty"
      }
    ],
    "address": " Watertorenstraat 15",
    "country": "Belgium",
    "state": "Antwerpen",
    "city": "Mol",
    "postal": " 2400",
    "priority": 1
  },
  {
    "lat": "50.7164619",
    "lng": "4.1568038",
    "id": 1938559,
    "name": "Soreina",
    "phone": "+32 478 62 48 24",
    "email": "reina@soreina.be",
    "web": "http:\/\/www.soreina.be\/",
    "webdisplay": "www.soreina.be\/",
    "tagsvalue": "Glo Beauty,Glo Skin,at home treatment\/peel boxen",
    "tags": [
      {
        "tag": "Glo Beauty"
      },
      {
        "tag": "Glo Skin"
      },
      {
        "tag": "at home treatment\/peel boxen"
      }
    ],
    "store_image": "https:\/\/cdn.shopify.com\/s\/files\/1\/0019\/7246\/9849\/t\/1\/assets\/scasl_1672126090_peel-at-home-boxen-verkooppunt-logo_compact.png",
    "address": "Rue du Gros Chêne 126",
    "country": "Belgium",
    "city": "Saintes",
    "postal": "1480",
    "priority": 1
  },
  {
    "lat": "50.82246199999999",
    "lng": "3.84544",
    "id": 3779605,
    "name": "Stefanie Degelas",
    "web": "https:\/\/www.stefaniedegelas.be\/",
    "webdisplay": "www.stefaniedegelas.be\/",
    "address": "Dorpstraat 52",
    "country": "Belgium",
    "state": "Oost-Vlaanderen",
    "city": "Lierde ",
    "postal": "9570",
    "priority": 1
  },
  {
    "lat": "51.1796251",
    "lng": "4.979851399999999",
    "id": 7244007,
    "name": "The Beauty Beautique",
    "phone": "0492 04 85 01",
    "email": "The_beautyboutique@outlook.com",
    "web": "https:\/\/www.thebeautyboutique-geel.com\/",
    "webdisplay": "www.thebeautyboutique-geel.com\/",
    "tagsvalue": "Glo Beauty",
    "tags": [
      {
        "tag": "Glo Beauty"
      }
    ],
    "address": "Zandhoefstraat 44",
    "country": "Belgium",
    "state": "Antwerpen",
    "city": "Geel ",
    "postal": "2440",
    "priority": 1
  },
  {
    "lat": "51.34410459999999",
    "lng": "3.2856242",
    "id": 9698964,
    "name": "The Glow Inn",
    "phone": "+32 496 20 25 39",
    "email": "info@theglowinn.be",
    "web": "https:\/\/www.theglowinn.be\/",
    "webdisplay": "www.theglowinn.be\/",
    "tagsvalue": "Glo Beauty",
    "tags": [
      {
        "tag": "Glo Beauty"
      }
    ],
    "store_image": "https:\/\/cdn.shopify.com\/s\/files\/1\/0019\/7246\/9849\/t\/1\/assets\/scasl_1682523765_peel-at-home-boxen-verkooppunt-logo_compact.png",
    "address": "Paul Parmentierlaan 63-65",
    "country": "Belgium",
    "state": "West-Vlaanderen",
    "city": "8300 Knokke",
    "priority": 1
  },
  {
    "lat": "51.0176111",
    "lng": "5.2868195",
    "id": 1938560,
    "name": "The Storybox ",
    "email": "kirsten@thestorybox.be",
    "web": "https:\/\/www.thestorybox.be\/",
    "webdisplay": "www.thestorybox.be",
    "tagsvalue": "Glo Beauty",
    "tags": [
      {
        "tag": "Glo Beauty"
      }
    ],
    "address": "Oude baan 94",
    "country": "Belgium",
    "state": "Limburg",
    "city": " Heusden Zolder",
    "postal": "3550",
    "priority": 1
  },
  {
    "lat": "51.0090078",
    "lng": "4.4739252",
    "id": 1938564,
    "name": "Ziezo",
    "phone": " +32 491 36 10 63",
    "email": " an@ziezokleurenstijl.be",
    "web": " http:\/\/www.ziezokleurenstijl.be",
    "tagsvalue": "Glo Beauty",
    "tags": [
      {
        "tag": "Glo Beauty"
      }
    ],
    "address": " Kruisbaan 3",
    "country": "Belgium",
    "state": "Antwerpen",
    "city": " Mechelen",
    "postal": " 2800",
    "priority": 1
  }
]
